[
  {
    "id": "cameroon-camp-joy-revival-radio-888-fm",
    "name": "Camp Joy Revival Radio 88.8 FM",
    "url": "https://audio-edge-qse4n.yyz.g.radiomast.io/e163239c-8ffa-410e-946e-d23c463d59b4",
    "genre": "Music",
    "city": "Bafoussam",
    "country": "Cameroon",
    "lat": 5.4758844,
    "lng": 10.4217852
  },
  {
    "id": "cameroon-gabonews-fm-935",
    "name": "Gabonews FM 93.5",
    "url": "http://n0d.radiojar.com/nh94273uerwtv?rj-ttl=5&rj-tok=AAABm_mHSWoAbhTefp3GY_cw3w",
    "genre": "Music",
    "city": "Yaoundé",
    "country": "Cameroon",
    "lat": 3.8689867,
    "lng": 11.5213344
  },
  {
    "id": "cameroon-radio-balafon-903-fm",
    "name": "Radio Balafon 90.3 FM",
    "url": "https://broadcasting-channels.com:9043/listen.mp3/",
    "genre": "Music",
    "city": "Douala",
    "country": "Cameroon",
    "lat": 4.0429389,
    "lng": 9.7062018
  },
  {
    "id": "cameroon-equinoxe-radio",
    "name": "Equinoxe Radio",
    "url": "https://listen.radioking.com/radio/39218/stream/76118",
    "genre": "Music",
    "city": "Douala",
    "country": "Cameroon",
    "lat": 4.0429389,
    "lng": 9.7062018
  },
  {
    "id": "cameroon-rvc-radio-voice-of-the-cross",
    "name": "RVC Radio Voice of the Cross",
    "url": "https://listen.radioking.com/radio/351811/stream/400894",
    "genre": "Music",
    "city": "Douala",
    "country": "Cameroon",
    "lat": 4.0429389,
    "lng": 9.7062018
  },
  {
    "id": "cameroon-fad-fm-931",
    "name": "FAD FM 93.1",
    "url": "https://radio.gotright.net/radio/8030/radio.mp3",
    "genre": "Music",
    "city": "Bamenda",
    "country": "Cameroon",
    "lat": 5.9614117,
    "lng": 10.1516505
  },
  {
    "id": "cameroon-truth-fm-932",
    "name": "Truth FM 93.2",
    "url": "https://s32.myradiostream.com:18066/listen.mp3",
    "genre": "Music",
    "city": "Douala",
    "country": "Cameroon",
    "lat": 4.0429389,
    "lng": 9.7062018
  },
  {
    "id": "cameroon-balla-radio",
    "name": "Balla Radio",
    "url": "https://usa5.fastcast4u.com/proxy/cameroon?mp=/1",
    "genre": "Music",
    "city": "Douala",
    "country": "Cameroon",
    "lat": 4.0429389,
    "lng": 9.7062018
  },
  {
    "id": "cameroon-life-fm-961",
    "name": "Life FM 96.1",
    "url": "https://s41.myradiostream.com:39496/listen.mp3?nocache=1769417351",
    "genre": "Music",
    "city": "Douala",
    "country": "Cameroon",
    "lat": 4.0429389,
    "lng": 9.7062018
  },
  {
    "id": "cameroon-unical-rain",
    "name": "Unical RAIN",
    "url": "https://rain.yrka.app/unical",
    "genre": "Music",
    "city": "Bafoussam",
    "country": "Cameroon",
    "lat": 5.4758844,
    "lng": 10.4217852
  },
  {
    "id": "cameroon-premium-899-fm",
    "name": "Premium 89.9 FM",
    "url": "https://radio.sternhost.com:8320/radio.mp3",
    "genre": "Music",
    "city": "Buea",
    "country": "Cameroon",
    "lat": 4.1567895,
    "lng": 9.2315915
  },
  {
    "id": "cameroon-city-fm-889",
    "name": "City FM 88.9",
    "url": "https://stream-178.zeno.fm/5fvvyvybabetv?zt=eyJhbGciOiJIUzI1NiJ9.eyJzdHJlYW0iOiI1ZnZ2eXZ5YmFiZXR2IiwiaG9zdCI6InN0cmVhbS0xNzguemVuby5mbSIsInRtIjpmYWxzZSwicnR0bCI6NSwianRpIjoiSV9qUHFsOUpRbGU5RUo5Qk9RMEdxdyIsImlhdCI6MTc2OTQxNzM1MSwiZXhwIjoxNzY5NDE3NDExfQ.pYQwnWEz2ML-BVTAh31WiG9E4ejZJntLkoP1UqutAP8",
    "genre": "Music",
    "city": "Bamenda",
    "country": "Cameroon",
    "lat": 5.9614117,
    "lng": 10.1516505
  },
  {
    "id": "cameroon-rush-fm-radio-fm-1045",
    "name": "Rush FM Radio FM 104.5",
    "url": "https://stream-163.zeno.fm/8ggdk1wbtc9uv?zt=eyJhbGciOiJIUzI1NiJ9.eyJzdHJlYW0iOiI4Z2dkazF3YnRjOXV2IiwiaG9zdCI6InN0cmVhbS0xNjMuemVuby5mbSIsInRtIjpmYWxzZSwicnR0bCI6NSwianRpIjoiQVFoXzRPUkNRRS01a0VUUDNqQWVxdyIsImlhdCI6MTc2OTQxNzM1MSwiZXhwIjoxNzY5NDE3NDExfQ.zbUBzQsA_28dCyqc4BVs3AVSY_YitKmlpPq1x0V9MJ4",
    "genre": "Music",
    "city": "Douala",
    "country": "Cameroon",
    "lat": 4.0429389,
    "lng": 9.7062018
  },
  {
    "id": "cameroon-canaan-city-995-fm",
    "name": "Canaan City 99.5 FM",
    "url": "https://stream-177.zeno.fm/70h6wiobd52tv?zt=eyJhbGciOiJIUzI1NiJ9.eyJzdHJlYW0iOiI3MGg2d2lvYmQ1MnR2IiwiaG9zdCI6InN0cmVhbS0xNzcuemVuby5mbSIsInRtIjpmYWxzZSwicnR0bCI6NSwianRpIjoiUDAwVU9TQ3VRLVdvODlIeEZvRTRFdyIsImlhdCI6MTc2OTQxNzM1MSwiZXhwIjoxNzY5NDE3NDExfQ.4uhdcxT6hEoEKB1ZlOsU5ZGGOZFfO7C55h0zXPG5JXI",
    "genre": "Music",
    "city": "Douala",
    "country": "Cameroon",
    "lat": 4.0429389,
    "lng": 9.7062018
  },
  {
    "id": "cameroon-asking-radio-africana",
    "name": "ASKiNG RADiO Africana",
    "url": "https://stream-160.zeno.fm/4pg0mepnyjnuv?zt=eyJhbGciOiJIUzI1NiJ9.eyJzdHJlYW0iOiI0cGcwbWVwbnlqbnV2IiwiaG9zdCI6InN0cmVhbS0xNjAuemVuby5mbSIsInRtIjpmYWxzZSwicnR0bCI6NSwianRpIjoic08zTXkyV0hSRldCVHFMajRwSC04dyIsImlhdCI6MTc2OTQxNzM1MSwiZXhwIjoxNzY5NDE3NDExfQ.e9-YNxjpZN75b7ngaH38WuNaA_ldpFCOdUT8jvNW_Ck",
    "genre": "Music",
    "city": "Bamenda",
    "country": "Cameroon",
    "lat": 5.9614117,
    "lng": 10.1516505
  },
  {
    "id": "cameroon-radio-alhouda-993-fm",
    "name": "Radio Alhouda 99.3 FM",
    "url": "https://stream-177.zeno.fm/ocyffqyhxzbvv?zt=eyJhbGciOiJIUzI1NiJ9.eyJzdHJlYW0iOiJvY3lmZnF5aHh6YnZ2IiwiaG9zdCI6InN0cmVhbS0xNzcuemVuby5mbSIsInRtIjpmYWxzZSwicnR0bCI6NSwianRpIjoiNHlUSGt2VFFRM08wSzVXV1pzcy1xQSIsImlhdCI6MTc2OTQxNzM1MSwiZXhwIjoxNzY5NDE3NDExfQ.u-nGdWjxKwBrVb6h7prGo6CaGOQbxk8ylJhefgX1rWQ",
    "genre": "Music",
    "city": "Douala",
    "country": "Cameroon",
    "lat": 4.0429389,
    "lng": 9.7062018
  },
  {
    "id": "cameroon-guira-fm-933",
    "name": "Guira FM 93.3",
    "url": "https://audio-edge-kef8b.ams.s.radiomast.io/ce42a7f0-b3a7-47ee-9eb2-97009bba3c2a",
    "genre": "Music",
    "city": "Koumé",
    "country": "Cameroon",
    "lat": 4.6360998,
    "lng": 13.6565245
  },
  {
    "id": "cameroon-sounds-smith-fm-gboko",
    "name": "Sounds Smith FM Gboko",
    "url": "https://wavesradio.radioca.st/index.html?sid=1",
    "genre": "Music",
    "city": "Bamenda",
    "country": "Cameroon",
    "lat": 5.9614117,
    "lng": 10.1516505
  },
  {
    "id": "cameroon-radio-voice-of-the-cross",
    "name": "Radio Voice of the Cross",
    "url": "https://listen.radioking.com/radio/246430/stream/290635",
    "genre": "Music",
    "city": "Koumé",
    "country": "Cameroon",
    "lat": 4.6360998,
    "lng": 13.6565245
  },
  {
    "id": "cameroon-radio-vie-nouvelle-1078-fm",
    "name": "Radio Vie Nouvelle 107.8 FM",
    "url": "https://lafrequencedevie.ice.infomaniak.ch/lafrequencedevie-64.mp3",
    "genre": "Music",
    "city": "Douala",
    "country": "Cameroon",
    "lat": 4.0429389,
    "lng": 9.7062018
  },
  {
    "id": "cameroon-radio-bonne-nouvelle-fm-996",
    "name": "Radio Bonne Nouvelle FM 99.6",
    "url": "https://radiobonnenouvelle2.ice.infomaniak.ch/radiobonnenouvelle2-96.mp3",
    "genre": "Music",
    "city": "Douala",
    "country": "Cameroon",
    "lat": 4.0429389,
    "lng": 9.7062018
  }
]