[
  {
    "id": "mauritius-radio-sud-plus-fm-1064",
    "name": "Radio Sud Plus FM 106.4",
    "url": "http://srv1.coollabel-productions.com:8040/stream?type=http&nocache=156/;",
    "genre": "Music",
    "city": "Port Louis",
    "country": "Mauritius",
    "lat": -20.1624522,
    "lng": 57.5028044
  },
  {
    "id": "mauritius-faith-radio",
    "name": "Faith Radio",
    "url": "http://mu1stream.mushost.com:8230/128kbps/",
    "genre": "Music",
    "city": "Vacoas",
    "country": "Mauritius",
    "lat": -20.2988986,
    "lng": 57.4927352
  },
  {
    "id": "mauritius-biker-hart-radio",
    "name": "Biker Hart Radio",
    "url": "https://edge.iono.fm/xice/158_medium.mp3",
    "genre": "Music",
    "city": "Port Louis",
    "country": "Mauritius",
    "lat": -20.1624522,
    "lng": 57.5028044
  },
  {
    "id": "mauritius-radio-moris",
    "name": "Radio Moris",
    "url": "https://azc.radiomoris.com:8010/radio.mp3",
    "genre": "Music",
    "city": "Port Louis",
    "country": "Mauritius",
    "lat": -20.1624522,
    "lng": 57.5028044
  },
  {
    "id": "mauritius-radio-des-makes",
    "name": "Radio Des Makes",
    "url": "https://ecmanager2.pro-fhi.net/radiodesmakes",
    "genre": "Music",
    "city": "Port Louis",
    "country": "Mauritius",
    "lat": -20.1624522,
    "lng": 57.5028044
  },
  {
    "id": "mauritius-radio-plus-fm-886",
    "name": "Radio Plus FM 88.6",
    "url": "https://stream.radioplus.mu:8000/radio.mp3",
    "genre": "Music",
    "city": "Port Louis",
    "country": "Mauritius",
    "lat": -20.1624522,
    "lng": 57.5028044
  },
  {
    "id": "mauritius-radio-7-mauritius",
    "name": "Radio 7 Mauritius",
    "url": "https://c2.radioboss.fm/stream/1056",
    "genre": "Music",
    "city": "Port Louis",
    "country": "Mauritius",
    "lat": -20.1624522,
    "lng": 57.5028044
  },
  {
    "id": "mauritius-tamizen-radio",
    "name": "Tamizen Radio",
    "url": "https://c34.radioboss.fm:18023/autodj",
    "genre": "Music",
    "city": "Vacoas",
    "country": "Mauritius",
    "lat": -20.2988986,
    "lng": 57.4927352
  },
  {
    "id": "mauritius-top-fm-1044",
    "name": "Top FM 104.4",
    "url": "http://s3.voscast.com:10152/index.html?sid=1",
    "genre": "Music",
    "city": "Port Louis",
    "country": "Mauritius",
    "lat": -20.1624522,
    "lng": 57.5028044
  },
  {
    "id": "mauritius-radio-230",
    "name": "Radio 230",
    "url": "https://listen.radio230.com/listen/radio230/radio.mp3",
    "genre": "Music",
    "city": "Port Mathurin",
    "country": "Mauritius",
    "lat": -19.6808372,
    "lng": 63.422113
  },
  {
    "id": "mauritius-rsl-radio",
    "name": "RSL Radio",
    "url": "https://rslradio.ice.infomaniak.ch/rslradio-128.mp3",
    "genre": "Music",
    "city": "Quatre Bornes",
    "country": "Mauritius",
    "lat": -20.2643015,
    "lng": 57.4800061
  },
  {
    "id": "mauritius-frequence-oasis",
    "name": "Fréquence Oasis",
    "url": "https://frequenceoasis.ice.infomaniak.ch/frequenceoasis-128.mp3",
    "genre": "Music",
    "city": "Ebène",
    "country": "Mauritius",
    "lat": -20.2418219,
    "lng": 57.4822953
  },
  {
    "id": "mauritius-nouradio",
    "name": "Nouradio",
    "url": "https://stream-175.zeno.fm/y16v3p6qgzzuv?zt=eyJhbGciOiJIUzI1NiJ9.eyJzdHJlYW0iOiJ5MTZ2M3A2cWd6enV2IiwiaG9zdCI6InN0cmVhbS0xNzUuemVuby5mbSIsInRtIjpmYWxzZSwicnR0bCI6NSwianRpIjoiN2pzcEF1ZmNUUkd3NklWS3ZNSWpuUSIsImlhdCI6MTc2OTQyMDYyOCwiZXhwIjoxNzY5NDIwNjg4fQ.YScHYJ28Mv-9h82ahSwKA7wPd7e0OD92fa3Z6E2WN1A",
    "genre": "Music",
    "city": "Port Mathurin",
    "country": "Mauritius",
    "lat": -19.6808372,
    "lng": 63.422113
  },
  {
    "id": "mauritius-radio-one-fm-1008",
    "name": "Radio One FM 100.8",
    "url": "https://centova57.instainternet.com/proxy/vivavoceltd/stream",
    "genre": "Music",
    "city": "Port Louis",
    "country": "Mauritius",
    "lat": -20.1624522,
    "lng": 57.5028044
  },
  {
    "id": "mauritius-nrj-maurice-fm-924",
    "name": "NRJ Maurice FM 92.4",
    "url": "https://streaming.nrjaudio.fm/oudbea2h9r57",
    "genre": "Music",
    "city": "Port Louis",
    "country": "Mauritius",
    "lat": -20.1624522,
    "lng": 57.5028044
  },
  {
    "id": "mauritius-hit-fm-mauritius",
    "name": "Hit FM Mauritius",
    "url": "https://stream-175.zeno.fm/8e5h28q71bwtv?zt=eyJhbGciOiJIUzI1NiJ9.eyJzdHJlYW0iOiI4ZTVoMjhxNzFid3R2IiwiaG9zdCI6InN0cmVhbS0xNzUuemVuby5mbSIsInRtIjpmYWxzZSwicnR0bCI6NSwianRpIjoiOWR6WnZpeG9SYmVsMWhPTlR6ckMzUSIsImlhdCI6MTc2OTQyMDYyOCwiZXhwIjoxNzY5NDIwNjg4fQ.G9VznBjDXrS7BbXqog2rMWTnOx6r8f_wV0rAzHPW-zc",
    "genre": "Music",
    "city": "Port Louis",
    "country": "Mauritius",
    "lat": -20.1624522,
    "lng": 57.5028044
  },
  {
    "id": "mauritius-radio-optimum-fm-974",
    "name": "Radio Optimum FM 97.4",
    "url": "https://stream-176.zeno.fm/tq55xe1r01zuv?zt=eyJhbGciOiJIUzI1NiJ9.eyJzdHJlYW0iOiJ0cTU1eGUxcjAxenV2IiwiaG9zdCI6InN0cmVhbS0xNzYuemVuby5mbSIsInRtIjpmYWxzZSwicnR0bCI6NSwianRpIjoiaDVnRnB4dGFSaUtIRjl3a3lXLWlkZyIsImlhdCI6MTc2OTQyMDYyOCwiZXhwIjoxNzY5NDIwNjg4fQ.36Tc8SNS37CeSA0jF6b_65bqdwTftrwSCrewdO85rvc",
    "genre": "Music",
    "city": "Port Louis",
    "country": "Mauritius",
    "lat": -20.1624522,
    "lng": 57.5028044
  },
  {
    "id": "mauritius-feradio",
    "name": "FERadio",
    "url": "https://stream-177.zeno.fm/xesauwewfzzuv?zt=eyJhbGciOiJIUzI1NiJ9.eyJzdHJlYW0iOiJ4ZXNhdXdld2Z6enV2IiwiaG9zdCI6InN0cmVhbS0xNzcuemVuby5mbSIsInRtIjpmYWxzZSwicnR0bCI6NSwianRpIjoiZ09GUXNOODZSZVdUUFpWa3JXbTlhQSIsImlhdCI6MTc2OTQyMDYyOCwiZXhwIjoxNzY5NDIwNjg4fQ._YE6HkVR3OR7qs5AyoH2kljxIpEQ1nuLLC5iOjU7xrM",
    "genre": "Music",
    "city": "Port Mathurin",
    "country": "Mauritius",
    "lat": -19.6808372,
    "lng": 63.422113
  },
  {
    "id": "mauritius-zero-alpha-radio",
    "name": "Zero Alpha Radio",
    "url": "http://15113.live.streamtheworld.com/SAM10AAC079_SC",
    "genre": "Music",
    "city": "Port Louis",
    "country": "Mauritius",
    "lat": -20.1624522,
    "lng": 57.5028044
  }
]