[
  {
    "id": "new-west-coast-radio-fm-876",
    "name": "West Coast Radio FM 87.6",
    "url": "http://stream2.nrgkits.co.nz:5000/wcrfm",
    "genre": "Music",
    "city": "Auckland",
    "country": "New Zealand",
    "lat": -36.852095,
    "lng": 174.7631803
  },
  {
    "id": "new-zfm-–-all-the-hits",
    "name": "ZFM – All The Hits",
    "url": "http://nebula.shoutca.st:8545/stream",
    "genre": "Music",
    "city": "Auckland",
    "country": "New Zealand",
    "lat": -36.852095,
    "lng": 174.7631803
  },
  {
    "id": "new-arasan-radio",
    "name": "Arasan Radio",
    "url": "http://curiosity.shoutca.st:6020/stream",
    "genre": "Music",
    "city": "Auckland",
    "country": "New Zealand",
    "lat": -36.852095,
    "lng": 174.7631803
  },
  {
    "id": "new-radio-tarana-am-1386",
    "name": "Radio Tarana AM 1386",
    "url": "http://peridot.streamguys.com:7150/Tarana.aac",
    "genre": "Music",
    "city": "Auckland",
    "country": "New Zealand",
    "lat": -36.852095,
    "lng": 174.7631803
  },
  {
    "id": "new-east-fm",
    "name": "East FM",
    "url": "https://listen.eastfm.nz/stream.mp3",
    "genre": "Music",
    "city": "Auckland",
    "country": "New Zealand",
    "lat": -36.852095,
    "lng": 174.7631803
  },
  {
    "id": "new-95bfm",
    "name": "95bFM",
    "url": "https://streams.95bfm.com/stream128",
    "genre": "Music",
    "city": "Auckland",
    "country": "New Zealand",
    "lat": -36.852095,
    "lng": 174.7631803
  },
  {
    "id": "new-rag-fm-1077",
    "name": "RAG-FM 107.7",
    "url": "https://cast6.asurahosting.com/proxy/ragfmcom/stream",
    "genre": "Music",
    "city": "Auckland",
    "country": "New Zealand",
    "lat": -36.852095,
    "lng": 174.7631803
  },
  {
    "id": "new-island-base-fm",
    "name": "Island Base FM",
    "url": "https://streams.islandbasefm.com:8443/stream",
    "genre": "Music",
    "city": "Auckland",
    "country": "New Zealand",
    "lat": -36.852095,
    "lng": 174.7631803
  },
  {
    "id": "new-radioactivefm-|-886fm",
    "name": "RadioActive.FM | 88.6FM",
    "url": "https://radio123-gecko.radioca.st/stream",
    "genre": "Music",
    "city": "Auckland",
    "country": "New Zealand",
    "lat": -36.852095,
    "lng": 174.7631803
  },
  {
    "id": "new-rnz-national",
    "name": "RNZ National",
    "url": "http://radionz-ice.streamguys.com/national.mp3",
    "genre": "Music",
    "city": "Auckland",
    "country": "New Zealand",
    "lat": -36.852095,
    "lng": 174.7631803
  },
  {
    "id": "new-brian-fm-christchurch",
    "name": "Brian FM Christchurch",
    "url": "https://ais-sa1.streamon.fm/7409_128k.aac",
    "genre": "Music",
    "city": "Christchurch",
    "country": "New Zealand",
    "lat": -43.530955,
    "lng": 172.6364343
  },
  {
    "id": "new-1074-bfm",
    "name": "107.4 BFM",
    "url": "https://s28.myradiostream.com/:21652/index.html?sid=1",
    "genre": "Music",
    "city": "Christchurch",
    "country": "New Zealand",
    "lat": -43.530955,
    "lng": 172.6364343
  },
  {
    "id": "new-southern-cross-country",
    "name": "Southern Cross Country",
    "url": "https://sxcountry.radioca.st/index.html?sid=1",
    "genre": "Music",
    "city": "Auckland",
    "country": "New Zealand",
    "lat": -36.852095,
    "lng": 174.7631803
  },
  {
    "id": "new-brian-fm-ashburton-997-fm",
    "name": "Brian FM Ashburton 99.7 FM",
    "url": "https://ais-sa1.streamon.fm/7653_128k.aac",
    "genre": "Music",
    "city": "Christchurch",
    "country": "New Zealand",
    "lat": -43.530955,
    "lng": 172.6364343
  },
  {
    "id": "new-the-breeze-fm-934",
    "name": "The Breeze FM 93.4",
    "url": "https://mediaworks.streamguys1.com/breeze-akl-high_icy",
    "genre": "Music",
    "city": "Auckland",
    "country": "New Zealand",
    "lat": -36.852095,
    "lng": 174.7631803
  },
  {
    "id": "new-brian-fm-nelson",
    "name": "Brian FM Nelson",
    "url": "https://ais-sa1.streamon.fm/7358_128k.aac",
    "genre": "Music",
    "city": "Christchurch",
    "country": "New Zealand",
    "lat": -43.530955,
    "lng": 172.6364343
  },
  {
    "id": "new-kaos-fm-878",
    "name": "Kaos FM 87.8",
    "url": "http://74.91.125.187:8068/index.html?sid=1",
    "genre": "Music",
    "city": "Christchurch",
    "country": "New Zealand",
    "lat": -43.530955,
    "lng": 172.6364343
  },
  {
    "id": "new-rnz-pacific",
    "name": "RNZ Pacific",
    "url": "http://radionz-ice.streamguys.com/international.mp3",
    "genre": "Music",
    "city": "Wellington",
    "country": "New Zealand",
    "lat": -41.2887953,
    "lng": 174.7772114
  },
  {
    "id": "new-badradio",
    "name": "Badradio",
    "url": "https://s2.radio.co/s2b2b68744/listen",
    "genre": "Music",
    "city": "Auckland",
    "country": "New Zealand",
    "lat": -36.852095,
    "lng": 174.7631803
  },
  {
    "id": "new-niu-fm",
    "name": "Niu FM",
    "url": "https://27153.live.streamtheworld.com:443/NIUFM.mp3",
    "genre": "Music",
    "city": "Auckland",
    "country": "New Zealand",
    "lat": -36.852095,
    "lng": 174.7631803
  },
  {
    "id": "new-rdu-985fm",
    "name": "RDU 98.5FM",
    "url": "https://rdu985fm-gecko.radioca.st/stream",
    "genre": "Music",
    "city": "Christchurch",
    "country": "New Zealand",
    "lat": -43.530955,
    "lng": 172.6364343
  },
  {
    "id": "new-881-hit-student-radio--mākoura-college",
    "name": "88.1 Hit Student Radio - Mākoura College",
    "url": "http://122.56.76.167:88/broadwave.mp3",
    "genre": "Music",
    "city": "Wellington",
    "country": "New Zealand",
    "lat": -41.2887953,
    "lng": 174.7772114
  },
  {
    "id": "new-compass-fm",
    "name": "Compass FM",
    "url": "http://stream.compassfm.org.nz:8000/Compass_FM_104.9",
    "genre": "Music",
    "city": "Christchurch",
    "country": "New Zealand",
    "lat": -43.530955,
    "lng": 172.6364343
  },
  {
    "id": "new-kix-fm",
    "name": "KIX FM",
    "url": "https://stream.kixfm.co.nz/listen/kixfm/stream",
    "genre": "Music",
    "city": "Wellington",
    "country": "New Zealand",
    "lat": -41.2887953,
    "lng": 174.7772114
  },
  {
    "id": "new-te-ūpoko-o-te-ika-fm-875",
    "name": "Te Ūpoko o te Ika FM 87.5",
    "url": "https://icast1.streamcom.net/TeUpoko",
    "genre": "Music",
    "city": "Wellington",
    "country": "New Zealand",
    "lat": -41.2887953,
    "lng": 174.7772114
  },
  {
    "id": "new-xs80s-fm-1073",
    "name": "XS80's FM 107.3",
    "url": "https://s1.myradiostream.com:12508/listen.mp3?nocache=1769421217",
    "genre": "Music",
    "city": "Christchurch",
    "country": "New Zealand",
    "lat": -43.530955,
    "lng": 172.6364343
  },
  {
    "id": "new-real-104fm",
    "name": "Real 104FM",
    "url": "https://stream4.themediasite.co.uk/stream/realradio",
    "genre": "Music",
    "city": "Christchurch",
    "country": "New Zealand",
    "lat": -43.530955,
    "lng": 172.6364343
  },
  {
    "id": "new-radio-x",
    "name": "Radio X",
    "url": "https://26343.live.streamtheworld.com:443/SAM02AAC65.mp3",
    "genre": "Music",
    "city": "Auckland",
    "country": "New Zealand",
    "lat": -36.852095,
    "lng": 174.7631803
  },
  {
    "id": "new-tlc-radio-1073-fm",
    "name": "TLC Radio 107.3 FM",
    "url": "http://203.118.136.79:88/broadwave.mp3",
    "genre": "Music",
    "city": "Whangarei",
    "country": "New Zealand",
    "lat": -35.7275268,
    "lng": 174.3194202
  },
  {
    "id": "new-mix-fm-879",
    "name": "Mix FM 87.9",
    "url": "https://stream.mixfm.nz/",
    "genre": "Music",
    "city": "Wellington",
    "country": "New Zealand",
    "lat": -41.2887953,
    "lng": 174.7772114
  },
  {
    "id": "new-the-generator",
    "name": "The Generator",
    "url": "https://s1.myradiostream.com/:14268/listen.mp3/",
    "genre": "Music",
    "city": "Whangarei",
    "country": "New Zealand",
    "lat": -35.7275268,
    "lng": 174.3194202
  },
  {
    "id": "new-ngāti-hine-fm",
    "name": "Ngāti Hine FM",
    "url": "https://icast1.streamcom.net/NgatiHine",
    "genre": "Music",
    "city": "Whangarei",
    "country": "New Zealand",
    "lat": -35.7275268,
    "lng": 174.3194202
  },
  {
    "id": "new-beagle-881",
    "name": "Beagle 88.1",
    "url": "https://stream.beagleradio.co.nz/stream",
    "genre": "Music",
    "city": "Whangarei",
    "country": "New Zealand",
    "lat": -35.7275268,
    "lng": 174.3194202
  },
  {
    "id": "new-cool-blue-taupo-fm-1075",
    "name": "Cool Blue Taupo FM 107.5",
    "url": "http://falcon.shoutca.st:8166/stream",
    "genre": "Music",
    "city": "Taupo",
    "country": "New Zealand",
    "lat": -38.6866197,
    "lng": 176.0694773
  },
  {
    "id": "new-timeless-taupo-1067",
    "name": "Timeless Taupo 106.7",
    "url": "https://audio-edge-jfbmv.sin.d.radiomast.io/9c86622e-3650-4ee4-8682-a5834d705c80",
    "genre": "Music",
    "city": "Taupo",
    "country": "New Zealand",
    "lat": -38.6866197,
    "lng": 176.0694773
  },
  {
    "id": "new-smooth-fm",
    "name": "Smooth FM",
    "url": "https://servidor26.brlogic.com:7110/live",
    "genre": "Music",
    "city": "Auckland",
    "country": "New Zealand",
    "lat": -36.852095,
    "lng": 174.7631803
  },
  {
    "id": "new-the-chill",
    "name": "The Chill",
    "url": "https://media-sov.musicradio.com/Chill",
    "genre": "Music",
    "city": "Taupo",
    "country": "New Zealand",
    "lat": -38.6866197,
    "lng": 176.0694773
  },
  {
    "id": "new-brian-fm-whanganui",
    "name": "Brian FM Whanganui",
    "url": "https://ais-sa1.streamon.fm/7100_128k.aac",
    "genre": "Music",
    "city": "Whanganui",
    "country": "New Zealand",
    "lat": -39.9324904,
    "lng": 175.0519306
  },
  {
    "id": "new-trunk-88fm",
    "name": "Trunk 88FM",
    "url": "https://a8.asurahosting.com:7760/radio.mp3",
    "genre": "Music",
    "city": "Taupo",
    "country": "New Zealand",
    "lat": -38.6866197,
    "lng": 176.0694773
  },
  {
    "id": "new-magic-music-fm-884",
    "name": "Magic Music FM 88.4",
    "url": "https://live.magicmusicfm.co.nz/index.html?sid=1",
    "genre": "Music",
    "city": "Whangarei",
    "country": "New Zealand",
    "lat": -35.7275268,
    "lng": 174.3194202
  },
  {
    "id": "new-reel-world-radio",
    "name": "Reel World Radio",
    "url": "https://ais-sa1.streamon.fm/7102_128k.aac",
    "genre": "Music",
    "city": "Whanganui",
    "country": "New Zealand",
    "lat": -39.9324904,
    "lng": 175.0519306
  },
  {
    "id": "new-positively-morrinsville-877-fm",
    "name": "Positively Morrinsville 87.7 FM",
    "url": "https://c16.radioboss.fm:18262/stream",
    "genre": "Music",
    "city": "Taupo",
    "country": "New Zealand",
    "lat": -38.6866197,
    "lng": 176.0694773
  },
  {
    "id": "new-radio-bay-fm-1007",
    "name": "Radio Bay FM 100.7",
    "url": "https://s38.myradiostream.com:8876/;;",
    "genre": "Music",
    "city": "Taupo",
    "country": "New Zealand",
    "lat": -38.6866197,
    "lng": 176.0694773
  },
  {
    "id": "new-radijohan",
    "name": "RadiJohan",
    "url": "https://s34.myradiostream.com:13740/listen.mp3",
    "genre": "Music",
    "city": "Taupo",
    "country": "New Zealand",
    "lat": -38.6866197,
    "lng": 176.0694773
  },
  {
    "id": "new-brian-fm-alexandra-cromwell-1055-fm",
    "name": "Brian FM Alexandra & Cromwell 105.5 FM",
    "url": "https://ais-sa1.streamon.fm/7655_128k.aac",
    "genre": "Music",
    "city": "Dunedin",
    "country": "New Zealand",
    "lat": -45.8740984,
    "lng": 170.5035755
  },
  {
    "id": "new-oamaru-fm-912",
    "name": "Oamaru FM 91.2",
    "url": "http://usa1-vn.mixstream.net:8096/listen.mp3/",
    "genre": "Music",
    "city": "Dunedin",
    "country": "New Zealand",
    "lat": -45.8740984,
    "lng": 170.5035755
  },
  {
    "id": "new-radio-one-91-fm",
    "name": "Radio One 91 FM",
    "url": "https://play.r1.co.nz/live",
    "genre": "Music",
    "city": "Dunedin",
    "country": "New Zealand",
    "lat": -45.8740984,
    "lng": 170.5035755
  },
  {
    "id": "new-radio-robotic",
    "name": "Radio Robotic",
    "url": "https://stream-175.zeno.fm/7zv3u6p951zuv?zt=eyJhbGciOiJIUzI1NiJ9.eyJzdHJlYW0iOiI3enYzdTZwOTUxenV2IiwiaG9zdCI6InN0cmVhbS0xNzUuemVuby5mbSIsInRtIjpmYWxzZSwicnR0bCI6NSwianRpIjoieUFHVDE3VWlUNk84enl4cXF6dmZ6dyIsImlhdCI6MTc2OTQyMTIyMSwiZXhwIjoxNzY5NDIxMjgxfQ.7jPouU0aM5JgoKtDv48sf3ygTVhs83HCX9KmCTWZDag",
    "genre": "Music",
    "city": "Taupo",
    "country": "New Zealand",
    "lat": -38.6866197,
    "lng": 176.0694773
  },
  {
    "id": "new-world-fm-882",
    "name": "World FM 88.2",
    "url": "https://www.worldfm.nz:8884/worldfmhd.aac",
    "genre": "Music",
    "city": "Wellington",
    "country": "New Zealand",
    "lat": -41.2887953,
    "lng": 174.7772114
  },
  {
    "id": "new-world-fm",
    "name": "World FM",
    "url": "https://www.worldfm.nz:8884/worldfmstereo.mp3",
    "genre": "Music",
    "city": "Wellington",
    "country": "New Zealand",
    "lat": -41.2887953,
    "lng": 174.7772114
  },
  {
    "id": "new-hutt-city-fm",
    "name": "Hutt City FM",
    "url": "http://125.236.233.220:8000/stream",
    "genre": "Music",
    "city": "Lower Hutt",
    "country": "New Zealand",
    "lat": -41.2125751,
    "lng": 174.9057626
  },
  {
    "id": "new-lake-fm-taupo-896",
    "name": "Lake FM Taupo 89.6",
    "url": "https://s4.radio.co/s4b10be2e5/listen",
    "genre": "Music",
    "city": "Taupo",
    "country": "New Zealand",
    "lat": -38.6866197,
    "lng": 176.0694773
  },
  {
    "id": "new-brian-fm-marlborough",
    "name": "Brian FM Marlborough",
    "url": "https://ais-sa1.streamon.fm/7103_128k.aac",
    "genre": "Music",
    "city": "Lower Hutt",
    "country": "New Zealand",
    "lat": -41.2125751,
    "lng": 174.9057626
  },
  {
    "id": "new-ski-fm",
    "name": "Ski FM",
    "url": "https://s2.radio.co/s6436891bc/listen",
    "genre": "Music",
    "city": "Taupo",
    "country": "New Zealand",
    "lat": -38.6866197,
    "lng": 176.0694773
  },
  {
    "id": "new-high-country-fm",
    "name": "High Country FM",
    "url": "https://s18.myradiostream.com/:13556/index.html?sid=1",
    "genre": "Music",
    "city": "Dunedin",
    "country": "New Zealand",
    "lat": -45.8740984,
    "lng": 170.5035755
  },
  {
    "id": "new-radio-control-994-fm",
    "name": "Radio Control 99.4 fm",
    "url": "https://michae14-gecko.radioca.st/stream",
    "genre": "Music",
    "city": "Whanganui",
    "country": "New Zealand",
    "lat": -39.9324904,
    "lng": 175.0519306
  },
  {
    "id": "new-brian-fm-timaru",
    "name": "Brian FM Timaru",
    "url": "https://ais-sa1.streamon.fm/7656_128k.aac",
    "genre": "Music",
    "city": "Timaru",
    "country": "New Zealand",
    "lat": -44.3930254,
    "lng": 171.2509786
  },
  {
    "id": "new-absolute-live-fm-883-whanganui",
    "name": "Absolute Live FM 88.3 Whanganui",
    "url": "https://n15.rcs.revma.com/zwwhcbd5km3vv?rj-ttl=5&rj-tok=AAABm_nCWvEAFLljZq4DhfRUXA",
    "genre": "Music",
    "city": "Whanganui",
    "country": "New Zealand",
    "lat": -39.9324904,
    "lng": 175.0519306
  },
  {
    "id": "new-hutt-radio-883-fm",
    "name": "Hutt Radio 88.3 FM",
    "url": "https://28903.live.streamtheworld.com:443/NZME_209AAC.aac",
    "genre": "Music",
    "city": "Whanganui",
    "country": "New Zealand",
    "lat": -39.9324904,
    "lng": 175.0519306
  },
  {
    "id": "new-cruize-fm-1052",
    "name": "Cruize FM 105.2",
    "url": "https://cruizefm.out.airtime.pro/cruizefm_a",
    "genre": "Music",
    "city": "Whanganui",
    "country": "New Zealand",
    "lat": -39.9324904,
    "lng": 175.0519306
  },
  {
    "id": "new-brian-fm-oamaru-888-fm",
    "name": "Brian FM Oamaru 88.8 FM",
    "url": "https://ais-sa1.streamon.fm/7654_128k.aac",
    "genre": "Music",
    "city": "Timaru",
    "country": "New Zealand",
    "lat": -44.3930254,
    "lng": 171.2509786
  },
  {
    "id": "new-oamaru-heritage-radio",
    "name": "Oamaru Heritage Radio",
    "url": "http://202.9.116.204:8000/ohrweb",
    "genre": "Music",
    "city": "Oamaru",
    "country": "New Zealand",
    "lat": -45.0999833,
    "lng": 170.9697933
  },
  {
    "id": "new-the-heat-991-fm",
    "name": "The Heat 99.1 FM",
    "url": "http://apple2.irirangi.net:8000/The_Heat.aac",
    "genre": "Music",
    "city": "Hamilton",
    "country": "New Zealand",
    "lat": -37.7878809,
    "lng": 175.281788
  },
  {
    "id": "new-tractor-fm-882",
    "name": "Tractor FM 88.2",
    "url": "https://admin.soundsvagrant.live/listen/tractor_fm/high.mp3",
    "genre": "Music",
    "city": "Raglan",
    "country": "New Zealand",
    "lat": -37.7997729,
    "lng": 174.8682464
  },
  {
    "id": "new-kiwifolk-radio",
    "name": "KiwiFolk Radio",
    "url": "https://streamer.radio.co/sde527a41e/listen",
    "genre": "Music",
    "city": "Dunedin",
    "country": "New Zealand",
    "lat": -45.8740984,
    "lng": 170.5035755
  },
  {
    "id": "new-radio-te-aroha-88fm",
    "name": "Radio Te Aroha 88FM",
    "url": "https://c2.radioboss.fm:18440/stream",
    "genre": "Music",
    "city": "Te Aroha",
    "country": "New Zealand",
    "lat": -37.543149,
    "lng": 175.7123669
  },
  {
    "id": "new-sleep-radio",
    "name": "Sleep Radio",
    "url": "https://cast4.my-control-panel.com/proxy/sleeprad/stream",
    "genre": "Music",
    "city": "Raglan",
    "country": "New Zealand",
    "lat": -37.7997729,
    "lng": 174.8682464
  },
  {
    "id": "new-beach-fm-1063",
    "name": "Beach FM 106.3",
    "url": "https://s8.myradiostream.com:58408/listen.mp3?nocache=1769421224",
    "genre": "Music",
    "city": "Palmerston North",
    "country": "New Zealand",
    "lat": -40.356317,
    "lng": 175.6112388
  },
  {
    "id": "new-1003fm-south-canterbury",
    "name": "100.3FM South Canterbury",
    "url": "https://uk4-vn.mixstream.net/:8066/index.html?sid=1",
    "genre": "Music",
    "city": "Timaru",
    "country": "New Zealand",
    "lat": -44.3930254,
    "lng": 171.2509786
  },
  {
    "id": "new-radio-central-fm-919",
    "name": "Radio Central FM 91.9",
    "url": "https://cast3.asurahosting.com/proxy/radioce3/stream",
    "genre": "Music",
    "city": "Alexandra",
    "country": "New Zealand",
    "lat": -45.2550839,
    "lng": 169.3921819
  },
  {
    "id": "new-8knz",
    "name": "8K.NZ",
    "url": "https://radio8k.out.airtime.pro/radio8k_a",
    "genre": "Music",
    "city": "Oamaru",
    "country": "New Zealand",
    "lat": -45.0999833,
    "lng": 170.9697933
  },
  {
    "id": "new-switch-fm-879",
    "name": "Switch FM 87.9",
    "url": "https://s8.myradiostream.com/:56886/listen.m4a/",
    "genre": "Music",
    "city": "Hastings",
    "country": "New Zealand",
    "lat": -39.6417678,
    "lng": 176.8430781
  }
]