[
  {
    "id": "rwanda-isango-star-fm-915",
    "name": "Isango Star FM 91.5",
    "url": "http://80.241.215.175:8000/;stream.mp3",
    "genre": "Music",
    "city": "Kigali",
    "country": "Rwanda",
    "lat": -1.9534357,
    "lng": 30.1140089
  },
  {
    "id": "rwanda-radio-maria-fm-973",
    "name": "Radio Maria FM 97.3",
    "url": "http://dreamsiteradiocp2.com:8098/index.html?sid=1",
    "genre": "Music",
    "city": "Kigali",
    "country": "Rwanda",
    "lat": -1.9534357,
    "lng": 30.1140089
  },
  {
    "id": "rwanda-hope-radio",
    "name": "Hope Radio",
    "url": "https://edge.iono.fm/xice/318_medium.aac",
    "genre": "Music",
    "city": "Kigali",
    "country": "Rwanda",
    "lat": -1.9534357,
    "lng": 30.1140089
  },
  {
    "id": "rwanda-royal-fm-943",
    "name": "Royal FM 94.3",
    "url": "https://stream3.rcast.net/73260",
    "genre": "Music",
    "city": "Kigali",
    "country": "Rwanda",
    "lat": -1.9534357,
    "lng": 30.1140089
  },
  {
    "id": "rwanda-radio-kwizera-fm-979",
    "name": "Radio Kwizera FM 97.9",
    "url": "https://uk4-vn.mixstream.net/:8052/;listen.mp3",
    "genre": "Music",
    "city": "Kigali",
    "country": "Rwanda",
    "lat": -1.9534357,
    "lng": 30.1140089
  },
  {
    "id": "rwanda-radio-ankole-993-fm",
    "name": "Radio Ankole 99.3 FM",
    "url": "https://stream-179.zeno.fm/tx3pbguupg8uv?zt=eyJhbGciOiJIUzI1NiJ9.eyJzdHJlYW0iOiJ0eDNwYmd1dXBnOHV2IiwiaG9zdCI6InN0cmVhbS0xNzkuemVuby5mbSIsInRtIjpmYWxzZSwicnR0bCI6NSwianRpIjoianNkY1F2c3lTWGV1Um9qVmh6bll1ZyIsImlhdCI6MTc2OTQyMjMyMSwiZXhwIjoxNzY5NDIyMzgxfQ.t42rh4BBVvo_7Sirv5UY5aGNrDTjxQYXU5UdiS_CAFI",
    "genre": "Music",
    "city": "Gicumbi",
    "country": "Rwanda",
    "lat": -1.5792052,
    "lng": 30.0677684
  },
  {
    "id": "rwanda-banyakigezi-fm",
    "name": "Banyakigezi FM",
    "url": "https://stream-179.zeno.fm/2yabwhybs7zuv?zt=eyJhbGciOiJIUzI1NiJ9.eyJzdHJlYW0iOiIyeWFid2h5YnM3enV2IiwiaG9zdCI6InN0cmVhbS0xNzkuemVuby5mbSIsInRtIjpmYWxzZSwicnR0bCI6NSwianRpIjoiY1ZSTkpRNElUZXlwQ0xCNGJuWlB1USIsImlhdCI6MTc2OTQyMjMyMSwiZXhwIjoxNzY5NDIyMzgxfQ.4VsxY_FBqvCGCrJNHwANSiK76a3i2Nzf4icsGHOLTAc",
    "genre": "Music",
    "city": "Kigali",
    "country": "Rwanda",
    "lat": -1.9534357,
    "lng": 30.1140089
  },
  {
    "id": "rwanda-radio-izuba",
    "name": "Radio IZUBA",
    "url": "https://stream-165.zeno.fm/vbn7vhzh2v8uv?zt=eyJhbGciOiJIUzI1NiJ9.eyJzdHJlYW0iOiJ2Ym43dmh6aDJ2OHV2IiwiaG9zdCI6InN0cmVhbS0xNjUuemVuby5mbSIsInRtIjpmYWxzZSwicnR0bCI6NSwianRpIjoiZDNkdC0wTnFRY0swaGJxZDRIZ0RJQSIsImlhdCI6MTc2OTQyMjMyMSwiZXhwIjoxNzY5NDIyMzgxfQ.ng5q2qC_1HK9-H7MoQayeIT-zn5XeoD53wVjnz19nLo",
    "genre": "Music",
    "city": "Ngoma",
    "country": "Rwanda",
    "lat": -1.8136061,
    "lng": 29.9868456
  },
  {
    "id": "rwanda-sda-radio-station",
    "name": "SDA Radio station",
    "url": "https://stream-177.zeno.fm/cu7nmvnp4ehvv?zt=eyJhbGciOiJIUzI1NiJ9.eyJzdHJlYW0iOiJjdTdubXZucDRlaHZ2IiwiaG9zdCI6InN0cmVhbS0xNzcuemVuby5mbSIsInRtIjpmYWxzZSwicnR0bCI6NSwianRpIjoiZjB0UEQ3RUZTUWVHWkpYVXJHS2J2ZyIsImlhdCI6MTc2OTQyMjMyMSwiZXhwIjoxNzY5NDIyMzgxfQ.aIYjZOmkNlU0la_zea-QWHBHhyV2OUyez8Obl82iRvI",
    "genre": "Music",
    "city": "Gicumbi",
    "country": "Rwanda",
    "lat": -1.5792052,
    "lng": 30.0677684
  },
  {
    "id": "rwanda-kt-radio-fm-967",
    "name": "KT Radio FM 96.7",
    "url": "https://stream-152.zeno.fm/q84wt2xdf18uv?zt=eyJhbGciOiJIUzI1NiJ9.eyJzdHJlYW0iOiJxODR3dDJ4ZGYxOHV2IiwiaG9zdCI6InN0cmVhbS0xNTIuemVuby5mbSIsInRtIjpmYWxzZSwicnR0bCI6NSwianRpIjoiUTEyaHFiN2tRdUdzaVhfc1ZaYTl5dyIsImlhdCI6MTc2OTQyMjMyMSwiZXhwIjoxNzY5NDIyMzgxfQ.wltuBYaw2fqAQzPpL-cslHgPXDGwzsrAhd20wupUOg0",
    "genre": "Music",
    "city": "Kigali",
    "country": "Rwanda",
    "lat": -1.9534357,
    "lng": 30.1140089
  },
  {
    "id": "rwanda-radio-maendeleo-888-fm",
    "name": "Radio Maendeleo 88.8 FM",
    "url": "https://cast.az-streamingserver.com/proxy/sazobvdl/stream",
    "genre": "Music",
    "city": "Karongi",
    "country": "Rwanda",
    "lat": -2.1707466,
    "lng": 29.4404247
  },
  {
    "id": "rwanda-radio-rwanda-1007",
    "name": "Radio Rwanda 100.7",
    "url": "https://listen.rba.co.rw:8008/rwanda/",
    "genre": "Music",
    "city": "Kigali",
    "country": "Rwanda",
    "lat": -1.9534357,
    "lng": 30.1140089
  },
  {
    "id": "rwanda-radio-10-fm-876",
    "name": "Radio 10 FM 87.6",
    "url": "https://radio10rwanda-atunwadigital.streamguys1.com/Radio10Rwanda",
    "genre": "Music",
    "city": "Kigali",
    "country": "Rwanda",
    "lat": -1.9534357,
    "lng": 30.1140089
  },
  {
    "id": "rwanda-kiss-fm-1023",
    "name": "Kiss FM 102.3",
    "url": "https://kissfm-atunwadigital.streamguys1.com/kissfm",
    "genre": "Music",
    "city": "Kigali",
    "country": "Rwanda",
    "lat": -1.9534357,
    "lng": 30.1140089
  },
  {
    "id": "rwanda-voice-of-muhabura-fm-889",
    "name": "Voice of Muhabura FM 88.9",
    "url": "https://s28.myradiostream.com:27018/listen.mp3?nocache=1769422322",
    "genre": "Music",
    "city": "Gicumbi",
    "country": "Rwanda",
    "lat": -1.5792052,
    "lng": 30.0677684
  },
  {
    "id": "rwanda-radio-tayna-rtct",
    "name": "Radio Tayna RTCT",
    "url": "https://stream-176.zeno.fm/ide8zzvajbcvv?zt=eyJhbGciOiJIUzI1NiJ9.eyJzdHJlYW0iOiJpZGU4enp2YWpiY3Z2IiwiaG9zdCI6InN0cmVhbS0xNzYuemVuby5mbSIsInRtIjpmYWxzZSwicnR0bCI6NSwianRpIjoiNVA3bkE1YTZUaHVodFR3WlZDdU9ZdyIsImlhdCI6MTc2OTQyMjMyMywiZXhwIjoxNzY5NDIyMzgzfQ.cGPAmiTlYmV721YtbN9XAzfgxvrHY91DU9wgKPeNukI",
    "genre": "Music",
    "city": "Karongi",
    "country": "Rwanda",
    "lat": -2.1707466,
    "lng": 29.4404247
  },
  {
    "id": "rwanda-radio-isangano-1049-fm",
    "name": "Radio Isangano 104.9 FM",
    "url": "https://stream-162.zeno.fm/iwfiuyt8ia2vv?zt=eyJhbGciOiJIUzI1NiJ9.eyJzdHJlYW0iOiJpd2ZpdXl0OGlhMnZ2IiwiaG9zdCI6InN0cmVhbS0xNjIuemVuby5mbSIsInRtIjpmYWxzZSwicnR0bCI6NSwianRpIjoiaUdXWGRpRHpTRXlIbGxXVXV2T2RrZyIsImlhdCI6MTc2OTQyMjMyMywiZXhwIjoxNzY5NDIyMzgzfQ.lufB8dv4uTxfEofA6v6z18f9UtTtknjyz1DAL31Pas8",
    "genre": "Music",
    "city": "Karongi",
    "country": "Rwanda",
    "lat": -2.1707466,
    "lng": 29.4404247
  },
  {
    "id": "rwanda-radio-voix-despoir-fm-943",
    "name": "Radio Voix d'Espoir FM 94.3",
    "url": "https://stream4.rcast.net/65372",
    "genre": "Music",
    "city": "Rusizi",
    "country": "Rwanda",
    "lat": -2.5573464,
    "lng": 29.1930539
  },
  {
    "id": "rwanda-goma-webradio",
    "name": "Goma Webradio",
    "url": "https://stream-176.zeno.fm/4d61wprrp7zuv?zt=eyJhbGciOiJIUzI1NiJ9.eyJzdHJlYW0iOiI0ZDYxd3BycnA3enV2IiwiaG9zdCI6InN0cmVhbS0xNzYuemVuby5mbSIsInRtIjpmYWxzZSwicnR0bCI6NSwianRpIjoiQWhKd0pHcU9RaVNyOTl4S0xDendTdyIsImlhdCI6MTc2OTQyMjMyNCwiZXhwIjoxNzY5NDIyMzg0fQ.H9h6iFcMuI8k_hLcWmd5BR_o6f5bA6ujRwoGhwRET24",
    "genre": "Music",
    "city": "Rusizi",
    "country": "Rwanda",
    "lat": -2.5573464,
    "lng": 29.1930539
  },
  {
    "id": "rwanda-street-deejays",
    "name": "Street Deejays",
    "url": "https://stream-153.zeno.fm/nbwdnxz7na0uv?zt=eyJhbGciOiJIUzI1NiJ9.eyJzdHJlYW0iOiJuYndkbnh6N25hMHV2IiwiaG9zdCI6InN0cmVhbS0xNTMuemVuby5mbSIsInRtIjpmYWxzZSwicnR0bCI6NSwianRpIjoiTzJEcUpXLVNSSmlNOEp1RWFnYVpRQSIsImlhdCI6MTc2OTQyMjMyNCwiZXhwIjoxNzY5NDIyMzg0fQ.fFG5wFMWgofYmlhDwVijQDR1Q77sEUJV0fkIqzbDIso",
    "genre": "Music",
    "city": "Nyagatare",
    "country": "Rwanda",
    "lat": -1.298632,
    "lng": 30.329535
  },
  {
    "id": "rwanda-conafohd-radio",
    "name": "CONAFOHD Radio",
    "url": "https://listen.radioking.com/radio/719807/stream/785618",
    "genre": "Music",
    "city": "Rusizi",
    "country": "Rwanda",
    "lat": -2.5573464,
    "lng": 29.1930539
  }
]