[
  {
    "id": "trinidad-boom-champions-941fm",
    "name": "Boom Champions 94.1FM",
    "url": "https://s8.yesstreaming.net:7103/stream",
    "genre": "Music",
    "city": "Port of Spain",
    "country": "Trinidad and Tobago",
    "lat": 10.6572678,
    "lng": -61.5180173
  },
  {
    "id": "trinidad-slam-1005-fm",
    "name": "Slam 100.5 FM",
    "url": "https://audio-edge-jfbmv.sin.d.radiomast.io/68540e88-54b8-4924-b098-5a668f7da7b6",
    "genre": "Music",
    "city": "Port of Spain",
    "country": "Trinidad and Tobago",
    "lat": 10.6572678,
    "lng": -61.5180173
  },
  {
    "id": "trinidad-vibe-ct-fm-1051",
    "name": "Vibe CT FM 105.1",
    "url": "https://audio-edge-fvq45.ams.d.radiomast.io/c35d311e-cc60-41b9-b0c5-339e62c14dee",
    "genre": "Music",
    "city": "Port of Spain",
    "country": "Trinidad and Tobago",
    "lat": 10.6572678,
    "lng": -61.5180173
  },
  {
    "id": "trinidad-freedom-1065-fm",
    "name": "Freedom 106.5 FM",
    "url": "https://audio-edge-fvq45.ams.d.radiomast.io/3ccc1156-fcf8-4ba7-9a0c-28e3a465e1ae",
    "genre": "Music",
    "city": "Port of Spain",
    "country": "Trinidad and Tobago",
    "lat": 10.6572678,
    "lng": -61.5180173
  },
  {
    "id": "trinidad-951-fm-remix",
    "name": "95.1 FM Remix",
    "url": "https://audio-edge-fvq45.ams.d.radiomast.io/68540e88-54b8-4924-b098-5a668f7da7b6",
    "genre": "Music",
    "city": "Port of Spain",
    "country": "Trinidad and Tobago",
    "lat": 10.6572678,
    "lng": -61.5180173
  },
  {
    "id": "trinidad-lit-1023-fm",
    "name": "lit 102.3 FM",
    "url": "https://s8.yesstreaming.net:17106/stream",
    "genre": "Music",
    "city": "Port of Spain",
    "country": "Trinidad and Tobago",
    "lat": 10.6572678,
    "lng": -61.5180173
  },
  {
    "id": "trinidad-sweet-1001-fm",
    "name": "Sweet 100.1 FM",
    "url": "https://media.streambrothers.com:8448/stream",
    "genre": "Music",
    "city": "Port of Spain",
    "country": "Trinidad and Tobago",
    "lat": 10.6572678,
    "lng": -61.5180173
  },
  {
    "id": "trinidad-next-991-fm",
    "name": "Next 99.1 FM",
    "url": "https://media.streambrothers.com:8442/stream",
    "genre": "Music",
    "city": "Port of Spain",
    "country": "Trinidad and Tobago",
    "lat": 10.6572678,
    "lng": -61.5180173
  },
  {
    "id": "trinidad-talk-city-911-fm",
    "name": "Talk City 91.1 FM",
    "url": "https://media.streambrothers.com:8450/stream",
    "genre": "Music",
    "city": "Port of Spain",
    "country": "Trinidad and Tobago",
    "lat": 10.6572678,
    "lng": -61.5180173
  },
  {
    "id": "trinidad-enfx-radio",
    "name": "eNFX Radio",
    "url": "https://enfxradio.radioca.st/index.html?sid=1",
    "genre": "Music",
    "city": "Port of Spain",
    "country": "Trinidad and Tobago",
    "lat": 10.6572678,
    "lng": -61.5180173
  },
  {
    "id": "trinidad-103fm",
    "name": "103FM",
    "url": "https://s4.myradiostream.com/:14348/",
    "genre": "Music",
    "city": "Port of Spain",
    "country": "Trinidad and Tobago",
    "lat": 10.6572678,
    "lng": -61.5180173
  },
  {
    "id": "trinidad-kingdom-news-radio",
    "name": "Kingdom News Radio",
    "url": "https://www.lanhub2.com/iskingdom",
    "genre": "Music",
    "city": "Port of Spain",
    "country": "Trinidad and Tobago",
    "lat": 10.6572678,
    "lng": -61.5180173
  },
  {
    "id": "trinidad-wack-radio-901-fm",
    "name": "WACK Radio 90.1 FM",
    "url": "https://stream-140.zeno.fm/4h2xb1zme3vtv?zt=eyJhbGciOiJIUzI1NiJ9.eyJzdHJlYW0iOiI0aDJ4YjF6bWUzdnR2IiwiaG9zdCI6InN0cmVhbS0xNDAuemVuby5mbSIsInRtIjpmYWxzZSwicnR0bCI6NSwianRpIjoienpiMllSUWpUTFNGZkdrUzVUeG12dyIsImlhdCI6MTc2OTQyMzc2NSwiZXhwIjoxNzY5NDIzODI1fQ.bNjztFoVCA4g7PVnCWazBt-JnlrV6_hZWMYH38R5nL0",
    "genre": "Music",
    "city": "San Fernando",
    "country": "Trinidad and Tobago",
    "lat": 10.2807069,
    "lng": -61.4645896
  },
  {
    "id": "trinidad-arima-radio",
    "name": "Arima Radio",
    "url": "https://www.istreamcaribbean.com/ism3prod",
    "genre": "Music",
    "city": "Arima",
    "country": "Trinidad and Tobago",
    "lat": 10.6372057,
    "lng": -61.2829762
  },
  {
    "id": "trinidad-growth",
    "name": "GROWTH",
    "url": "https://cast3.asurahosting.com/proxy/growthan/stream",
    "genre": "Music",
    "city": "Siparia",
    "country": "Trinidad and Tobago",
    "lat": 10.1471607,
    "lng": -61.5787032
  },
  {
    "id": "trinidad-dread-radio",
    "name": "Dread Radio",
    "url": "https://streaming.radio.co/s64d9c132a/listen",
    "genre": "Music",
    "city": "Port of Spain",
    "country": "Trinidad and Tobago",
    "lat": 10.6572678,
    "lng": -61.5180173
  },
  {
    "id": "trinidad-fresh-fire-gospel-radio-tt",
    "name": "Fresh Fire Gospel Radio TT",
    "url": "https://stream-178.zeno.fm/t7hky208ab5vv?zt=eyJhbGciOiJIUzI1NiJ9.eyJzdHJlYW0iOiJ0N2hreTIwOGFiNXZ2IiwiaG9zdCI6InN0cmVhbS0xNzguemVuby5mbSIsInRtIjpmYWxzZSwicnR0bCI6NSwianRpIjoiaVlZZVowT3RRdzZYamxwTndTMm5OUSIsImlhdCI6MTc2OTQyMzc2NiwiZXhwIjoxNzY5NDIzODI2fQ.TOWxV99tEelm-u9Ya3fTLMSfMv-yioKCeqXE4XmckUU",
    "genre": "Music",
    "city": "San Fernando",
    "country": "Trinidad and Tobago",
    "lat": 10.2807069,
    "lng": -61.4645896
  },
  {
    "id": "trinidad-caribbean-light-radio",
    "name": "Caribbean Light Radio",
    "url": "https://centova47.instainternet.com/proxy/tehillaradio?mp=/stream",
    "genre": "Music",
    "city": "San Fernando",
    "country": "Trinidad and Tobago",
    "lat": 10.2807069,
    "lng": -61.4645896
  },
  {
    "id": "trinidad-woods-hit-radio",
    "name": "Woods Hit Radio",
    "url": "https://cast4.asurahosting.com/proxy/nigel/stream",
    "genre": "Music",
    "city": "Petit Valley",
    "country": "Trinidad and Tobago",
    "lat": 10.6479401,
    "lng": -61.5114831
  },
  {
    "id": "trinidad-cmn-radio",
    "name": "CMN Radio",
    "url": "http://n0f.radiojar.com/6egtut9qav3vv?rj-ttl=5&rj-tok=AAABm_npM90ATL79QX_91CUvAw",
    "genre": "Music",
    "city": "San Fernando",
    "country": "Trinidad and Tobago",
    "lat": 10.2807069,
    "lng": -61.4645896
  },
  {
    "id": "trinidad-mayaro-radio",
    "name": "Mayaro Radio",
    "url": "https://usa19.fastcast4u.com/mayaro630",
    "genre": "Music",
    "city": "Plaisance",
    "country": "Trinidad and Tobago",
    "lat": 10.2937393,
    "lng": -61.0011464
  },
  {
    "id": "trinidad-radio-toco-1067-fm",
    "name": "Radio Toco 106.7 FM",
    "url": "https://www.lanhub2.com/isradiotoco",
    "genre": "Music",
    "city": "Toco",
    "country": "Trinidad and Tobago",
    "lat": 10.8368357,
    "lng": -60.9376753
  },
  {
    "id": "trinidad-soca-switch-radio",
    "name": "Soca Switch Radio",
    "url": "https://stream-155.zeno.fm/4f738mzizi1uv?zt=eyJhbGciOiJIUzI1NiJ9.eyJzdHJlYW0iOiI0ZjczOG16aXppMXV2IiwiaG9zdCI6InN0cmVhbS0xNTUuemVuby5mbSIsInRtIjpmYWxzZSwicnR0bCI6NSwianRpIjoidlVqcmRZeXZSaDJ6Ty1GZmhlTnlEQSIsImlhdCI6MTc2OTQyMzc2OCwiZXhwIjoxNzY5NDIzODI4fQ.aldKX0uyEHmNN21ccVNr62f1sqcuaRgbWYAUHc32Zl4",
    "genre": "Music",
    "city": "Valencia",
    "country": "Trinidad and Tobago",
    "lat": 10.6535689,
    "lng": -61.1942361
  },
  {
    "id": "trinidad-music-radio-97",
    "name": "Music Radio 97",
    "url": "https://ice42.securenetsystems.net/MR97",
    "genre": "Music",
    "city": "Port of Spain",
    "country": "Trinidad and Tobago",
    "lat": 10.6572678,
    "lng": -61.5180173
  },
  {
    "id": "trinidad-radio-tambrin-927-fm",
    "name": "Radio Tambrin 92.7 FM",
    "url": "https://ice42.securenetsystems.net/TAMBRIN",
    "genre": "Music",
    "city": "Port of Spain",
    "country": "Trinidad and Tobago",
    "lat": 10.6572678,
    "lng": -61.5180173
  },
  {
    "id": "trinidad-radio12tt",
    "name": "Radio12tt",
    "url": "https://s2.radio.co/s23ce3db62/listen",
    "genre": "Music",
    "city": "Diego Martin",
    "country": "Trinidad and Tobago",
    "lat": 10.7138597,
    "lng": -61.5793555
  },
  {
    "id": "trinidad-win-radio-1011-fm",
    "name": "WIN Radio 101.1 FM",
    "url": "https://stream.radio.co/s9f46a9bb1/listen",
    "genre": "Music",
    "city": "Chaguanas",
    "country": "Trinidad and Tobago",
    "lat": 10.5147394,
    "lng": -61.4076757
  },
  {
    "id": "trinidad-heartbeat-radio-fm-1041",
    "name": "Heartbeat Radio FM 104.1",
    "url": "https://ice42.securenetsystems.net/CLCL",
    "genre": "Music",
    "city": "Port of Spain",
    "country": "Trinidad and Tobago",
    "lat": 10.6572678,
    "lng": -61.5180173
  },
  {
    "id": "trinidad-globalfmreggaeradio",
    "name": "GlobalFmReggaeRadio",
    "url": "https://servidor39-5.brlogic.com:7190/live",
    "genre": "Music",
    "city": "San Fernando",
    "country": "Trinidad and Tobago",
    "lat": 10.2807069,
    "lng": -61.4645896
  },
  {
    "id": "trinidad-sangeet-106-fm",
    "name": "Sangeet 106 FM",
    "url": "https://audio-edge-fvq45.ams.d.radiomast.io/22e2c991-fc0c-4242-8cba-0a64d0aea809",
    "genre": "Music",
    "city": "Port of Spain",
    "country": "Trinidad and Tobago",
    "lat": 10.6572678,
    "lng": -61.5180173
  },
  {
    "id": "trinidad-gen10-radio",
    "name": "Gen10 Radio",
    "url": "https://streaming.radio.co/s2fe166ea0/listen",
    "genre": "Music",
    "city": "Santa Cruz",
    "country": "Trinidad and Tobago",
    "lat": 10.710225,
    "lng": -61.4741636
  },
  {
    "id": "trinidad-fully-catholic-radio",
    "name": "Fully Catholic Radio",
    "url": "https://usa10.fastcast4u.com/fullycat2",
    "genre": "Music",
    "city": "Port of Spain",
    "country": "Trinidad and Tobago",
    "lat": 10.6572678,
    "lng": -61.5180173
  },
  {
    "id": "trinidad-caribbean-wave-qx93",
    "name": "Caribbean Wave QX93",
    "url": "https://s3.citrus3.com:8002/stream",
    "genre": "Music",
    "city": "Port of Spain",
    "country": "Trinidad and Tobago",
    "lat": 10.6572678,
    "lng": -61.5180173
  },
  {
    "id": "trinidad-platinum-hits-1035-fm",
    "name": "Platinum Hits 103.5 FM",
    "url": "https://ice42.securenetsystems.net/PLATHITS",
    "genre": "Music",
    "city": "Port of Spain",
    "country": "Trinidad and Tobago",
    "lat": 10.6572678,
    "lng": -61.5180173
  },
  {
    "id": "trinidad-radio-905-fm",
    "name": "Radio 90.5 FM",
    "url": "https://ice42.securenetsystems.net/CR90",
    "genre": "Music",
    "city": "Port of Spain",
    "country": "Trinidad and Tobago",
    "lat": 10.6572678,
    "lng": -61.5180173
  },
  {
    "id": "trinidad-isaac-fm-981",
    "name": "Isaac FM 98.1",
    "url": "https://ice66.securenetsystems.net/FFBN",
    "genre": "Music",
    "city": "Port of Spain",
    "country": "Trinidad and Tobago",
    "lat": 10.6572678,
    "lng": -61.5180173
  }
]